{
  "type" : "FeatureCollection",
  "crs" : {
    "type" : "name",
    "properties" : {
      "name" : "EPSG:4326"
    }
  },
  "features" : [
    {
      "type" : "Feature",
      "id" : 0,
      "geometry" : {
        "type" : "Point",
        "coordinates" : [
          119.43608511047097,
          26.533629353496153
        ]
      },
      "properties" : {
        "FID" : 0,
        "name" : "石佛亭",
        "lng" : 119.441013,
        "lat" : 26.530428000000001
      }
    },
    {
      "type" : "Feature",
      "id" : 1,
      "geometry" : {
        "type" : "Point",
        "coordinates" : [
          119.45919191643588,
          26.567920983426713
        ]
      },
      "properties" : {
        "FID" : 1,
        "name" : "圣寿寺",
        "lng" : 119.46406,
        "lat" : 26.564665000000002
      }
    },
    {
      "type" : "Feature",
      "id" : 2,
      "geometry" : {
        "type" : "Point",
        "coordinates" : [
          119.48119940331971,
          26.526506927582787
        ]
      },
      "properties" : {
        "FID" : 2,
        "name" : "云泉禅寺",
        "lng" : 119.485989,
        "lat" : 26.523198000000001
      }
    },
    {
      "type" : "Feature",
      "id" : 3,
      "geometry" : {
        "type" : "Point",
        "coordinates" : [
          119.48510810044786,
          26.587987262617094
        ]
      },
      "properties" : {
        "FID" : 3,
        "name" : "罗源中房叠石三清观",
        "lng" : 119.48988799999999,
        "lat" : 26.584657
      }
    },
    {
      "type" : "Feature",
      "id" : 4,
      "geometry" : {
        "type" : "Point",
        "coordinates" : [
          119.50528190038366,
          26.531096618407236
        ]
      },
      "properties" : {
        "FID" : 4,
        "name" : "罗源紫峰寺",
        "lng" : 119.50998199999999,
        "lat" : 26.527715000000001
      }
    },
    {
      "type" : "Feature",
      "id" : 5,
      "geometry" : {
        "type" : "Point",
        "coordinates" : [
          119.4381855031675,
          26.590293686910993
        ]
      },
      "properties" : {
        "FID" : 5,
        "name" : "罗源县中房镇金峰寺",
        "lng" : 119.443113,
        "lat" : 26.58708
      }
    },
    {
      "type" : "Feature",
      "id" : 6,
      "geometry" : {
        "type" : "Point",
        "coordinates" : [
          119.39359941253774,
          26.494313630401376
        ]
      },
      "properties" : {
        "FID" : 6,
        "name" : "兴祥禅寺",
        "lng" : 119.398574,
        "lat" : 26.491154000000002
      }
    },
    {
      "type" : "Feature",
      "id" : 7,
      "geometry" : {
        "type" : "Point",
        "coordinates" : [
          119.50257091779548,
          26.542487711501703
        ]
      },
      "properties" : {
        "FID" : 7,
        "name" : "金瓠石",
        "lng" : 119.507282,
        "lat" : 26.539111999999999
      }
    },
    {
      "type" : "Feature",
      "id" : 8,
      "geometry" : {
        "type" : "Point",
        "coordinates" : [
          119.37864348048828,
          26.569474352407745
        ]
      },
      "properties" : {
        "FID" : 8,
        "name" : "状元亭",
        "lng" : 119.38361999999999,
        "lat" : 26.566293000000002
      }
    },
    {
      "type" : "Feature",
      "id" : 9,
      "geometry" : {
        "type" : "Point",
        "coordinates" : [
          119.51509861554182,
          26.509029486368711
        ]
      },
      "properties" : {
        "FID" : 9,
        "name" : "开善寺",
        "lng" : 119.519761,
        "lat" : 26.505624000000001
      }
    },
    {
      "type" : "Feature",
      "id" : 10,
      "geometry" : {
        "type" : "Point",
        "coordinates" : [
          119.49895254361019,
          26.499951957215401
        ]
      },
      "properties" : {
        "FID" : 10,
        "name" : "庆田寺",
        "lng" : 119.503674,
        "lat" : 26.496596
      }
    },
    {
      "type" : "Feature",
      "id" : 11,
      "geometry" : {
        "type" : "Point",
        "coordinates" : [
          119.51876044593476,
          26.539328021661706
        ]
      },
      "properties" : {
        "FID" : 11,
        "name" : "罗源鲸鱼麦苗露营地",
        "lng" : 119.52341199999999,
        "lat" : 26.535906000000001
      }
    },
    {
      "type" : "Feature",
      "id" : 12,
      "geometry" : {
        "type" : "Point",
        "coordinates" : [
          119.50809724146788,
          26.559292902657734
        ]
      },
      "properties" : {
        "FID" : 12,
        "name" : "曹垄宫",
        "lng" : 119.512789,
        "lat" : 26.555897999999999
      }
    },
    {
      "type" : "Feature",
      "id" : 13,
      "geometry" : {
        "type" : "Point",
        "coordinates" : [
          119.42736589907571,
          26.6064894815045
        ]
      },
      "properties" : {
        "FID" : 13,
        "name" : "陈氏宗祠",
        "lng" : 119.432317,
        "lat" : 26.603290999999999
      }
    },
    {
      "type" : "Feature",
      "id" : 14,
      "geometry" : {
        "type" : "Point",
        "coordinates" : [
          119.51269686781824,
          26.509555736767101
        ]
      },
      "properties" : {
        "FID" : 14,
        "name" : "磹香禅寺",
        "lng" : 119.517368,
        "lat" : 26.506157000000002
      }
    },
    {
      "type" : "Feature",
      "id" : 15,
      "geometry" : {
        "type" : "Point",
        "coordinates" : [
          119.37493716365469,
          26.503120944860708
        ]
      },
      "properties" : {
        "FID" : 15,
        "name" : "普明禅寺",
        "lng" : 119.37990600000001,
        "lat" : 26.499949000000001
      }
    },
    {
      "type" : "Feature",
      "id" : 16,
      "geometry" : {
        "type" : "Point",
        "coordinates" : [
          119.51555925253001,
          26.50933486288293
        ]
      },
      "properties" : {
        "FID" : 16,
        "name" : "莲池别院",
        "lng" : 119.52021999999999,
        "lat" : 26.505928000000001
      }
    },
    {
      "type" : "Feature",
      "id" : 17,
      "geometry" : {
        "type" : "Point",
        "coordinates" : [
          119.47704069632425,
          26.469451058491686
        ]
      },
      "properties" : {
        "FID" : 17,
        "name" : "万寿寺",
        "lng" : 119.481841,
        "lat" : 26.466168
      }
    },
    {
      "type" : "Feature",
      "id" : 18,
      "geometry" : {
        "type" : "Point",
        "coordinates" : [
          119.52352390210444,
          26.514939102493823
        ]
      },
      "properties" : {
        "FID" : 18,
        "name" : "黄氏宗祠",
        "lng" : 119.52815699999999,
        "lat" : 26.511509
      }
    },
    {
      "type" : "Feature",
      "id" : 19,
      "geometry" : {
        "type" : "Point",
        "coordinates" : [
          119.52560570209216,
          26.532525267649124
        ]
      },
      "properties" : {
        "FID" : 19,
        "name" : "西山白马尊王宫",
        "lng" : 119.530233,
        "lat" : 26.529086
      }
    },
    {
      "type" : "Feature",
      "id" : 20,
      "geometry" : {
        "type" : "Point",
        "coordinates" : [
          119.41720463245406,
          26.470363840642374
        ]
      },
      "properties" : {
        "FID" : 20,
        "name" : "亭音观境七",
        "lng" : 119.422161,
        "lat" : 26.467202
      }
    },
    {
      "type" : "Feature",
      "id" : 21,
      "geometry" : {
        "type" : "Point",
        "coordinates" : [
          119.47223185172241,
          26.612054557348767
        ]
      },
      "properties" : {
        "FID" : 21,
        "name" : "黄厝里",
        "lng" : 119.47705999999999,
        "lat" : 26.608758999999999
      }
    },
    {
      "type" : "Feature",
      "id" : 22,
      "geometry" : {
        "type" : "Point",
        "coordinates" : [
          119.42785911873868,
          26.615242899566177
        ]
      },
      "properties" : {
        "FID" : 22,
        "name" : "林家祖厅",
        "lng" : 119.43281,
        "lat" : 26.612043
      }
    },
    {
      "type" : "Feature",
      "id" : 23,
      "geometry" : {
        "type" : "Point",
        "coordinates" : [
          119.44006604439784,
          26.614812489511703
        ]
      },
      "properties" : {
        "FID" : 23,
        "name" : "中共河洋区苏维埃政府旧址",
        "lng" : 119.444991,
        "lat" : 26.611592999999999
      }
    },
    {
      "type" : "Feature",
      "id" : 24,
      "geometry" : {
        "type" : "Point",
        "coordinates" : [
          119.53743199538727,
          26.516967358006163
        ]
      },
      "properties" : {
        "FID" : 24,
        "name" : "华祖庙",
        "lng" : 119.54201999999999,
        "lat" : 26.513501999999999
      }
    },
    {
      "type" : "Feature",
      "id" : 25,
      "geometry" : {
        "type" : "Point",
        "coordinates" : [
          119.44032664360188,
          26.615171001941832
        ]
      },
      "properties" : {
        "FID" : 25,
        "name" : "岳峰宫",
        "lng" : 119.445251,
        "lat" : 26.611951000000001
      }
    },
    {
      "type" : "Feature",
      "id" : 26,
      "geometry" : {
        "type" : "Point",
        "coordinates" : [
          119.42510210771886,
          26.617112471178352
        ]
      },
      "properties" : {
        "FID" : 26,
        "name" : "林氏宗祠",
        "lng" : 119.430058,
        "lat" : 26.613916
      }
    },
    {
      "type" : "Feature",
      "id" : 27,
      "geometry" : {
        "type" : "Point",
        "coordinates" : [
          119.54058918805616,
          26.5337489063817
        ]
      },
      "properties" : {
        "FID" : 27,
        "name" : "龙华禅寺",
        "lng" : 119.545169,
        "lat" : 26.530273000000001
      }
    },
    {
      "type" : "Feature",
      "id" : 28,
      "geometry" : {
        "type" : "Point",
        "coordinates" : [
          119.45527099056513,
          26.435878201339168
        ]
      },
      "properties" : {
        "FID" : 28,
        "name" : "禾山风景区",
        "lng" : 119.46014099999999,
        "lat" : 26.432663000000002
      }
    },
    {
      "type" : "Feature",
      "id" : 29,
      "geometry" : {
        "type" : "Point",
        "coordinates" : [
          119.54185257321765,
          26.510703851283974
        ]
      },
      "properties" : {
        "FID" : 29,
        "name" : "起步大公园",
        "lng" : 119.54642699999999,
        "lat" : 26.50723
      }
    },
    {
      "type" : "Feature",
      "id" : 30,
      "geometry" : {
        "type" : "Point",
        "coordinates" : [
          119.53886247728794,
          26.514755141326035
        ]
      },
      "properties" : {
        "FID" : 30,
        "name" : "神光禅寺",
        "lng" : 119.543446,
        "lat" : 26.511286999999999
      }
    },
    {
      "type" : "Feature",
      "id" : 31,
      "geometry" : {
        "type" : "Point",
        "coordinates" : [
          119.53354495069884,
          26.489623737121327
        ]
      },
      "properties" : {
        "FID" : 31,
        "name" : "先锋庙",
        "lng" : 119.53814300000001,
        "lat" : 26.486173999999998
      }
    },
    {
      "type" : "Feature",
      "id" : 32,
      "geometry" : {
        "type" : "Point",
        "coordinates" : [
          119.53110763351827,
          26.496468455216124
        ]
      },
      "properties" : {
        "FID" : 32,
        "name" : "慈云禅寺",
        "lng" : 119.535714,
        "lat" : 26.493023000000001
      }
    },
    {
      "type" : "Feature",
      "id" : 33,
      "geometry" : {
        "type" : "Point",
        "coordinates" : [
          119.47058568216538,
          26.434165100516431
        ]
      },
      "properties" : {
        "FID" : 33,
        "name" : "隐峰禅寺",
        "lng" : 119.47540600000001,
        "lat" : 26.430910999999998
      }
    },
    {
      "type" : "Feature",
      "id" : 34,
      "geometry" : {
        "type" : "Point",
        "coordinates" : [
          119.53324867237423,
          26.494189163979261
        ]
      },
      "properties" : {
        "FID" : 34,
        "name" : "罗源县西来禅寺",
        "lng" : 119.537848,
        "lat" : 26.490739000000001
      }
    },
    {
      "type" : "Feature",
      "id" : 35,
      "geometry" : {
        "type" : "Point",
        "coordinates" : [
          119.53208538158943,
          26.501940195738676
        ]
      },
      "properties" : {
        "FID" : 35,
        "name" : "梅峰禅寺",
        "lng" : 119.536689,
        "lat" : 26.498491000000001
      }
    },
    {
      "type" : "Feature",
      "id" : 36,
      "geometry" : {
        "type" : "Point",
        "coordinates" : [
          119.32956580104748,
          26.454925135373568
        ]
      },
      "properties" : {
        "FID" : 36,
        "name" : "罗源飞竹西洋宫",
        "lng" : 119.334464,
        "lat" : 26.451696999999999
      }
    },
    {
      "type" : "Feature",
      "id" : 37,
      "geometry" : {
        "type" : "Point",
        "coordinates" : [
          119.457855173075,
          26.627684910787206
        ]
      },
      "properties" : {
        "FID" : 37,
        "name" : "佳溪寺",
        "lng" : 119.462732,
        "lat" : 26.624426
      }
    },
    {
      "type" : "Feature",
      "id" : 38,
      "geometry" : {
        "type" : "Point",
        "coordinates" : [
          119.58746871860978,
          26.481798772391212
        ]
      },
      "properties" : {
        "FID" : 38,
        "name" : "罗源滨海基督教堂",
        "lng" : 119.591954,
        "lat" : 26.478275
      }
    },
    {
      "type" : "Feature",
      "id" : 39,
      "geometry" : {
        "type" : "Point",
        "coordinates" : [
          119.60044936896699,
          26.456885352800416
        ]
      },
      "properties" : {
        "FID" : 39,
        "name" : "福州罗源湾海洋世界旅游度假区",
        "lng" : 119.60492600000001,
        "lat" : 26.453368999999999
      }
    },
    {
      "type" : "Feature",
      "id" : 40,
      "geometry" : {
        "type" : "Point",
        "coordinates" : [
          119.5861169289483,
          26.47658698684155
        ]
      },
      "properties" : {
        "FID" : 40,
        "name" : "关公广场",
        "lng" : 119.590603,
        "lat" : 26.473064999999998
      }
    },
    {
      "type" : "Feature",
      "id" : 41,
      "geometry" : {
        "type" : "Point",
        "coordinates" : [
          119.4219348566166,
          26.450664756638158
        ]
      },
      "properties" : {
        "FID" : 41,
        "name" : "光化禅寺",
        "lng" : 119.426883,
        "lat" : 26.447503999999999
      }
    },
    {
      "type" : "Feature",
      "id" : 42,
      "geometry" : {
        "type" : "Point",
        "coordinates" : [
          119.55799792089039,
          26.485901964931934
        ]
      },
      "properties" : {
        "FID" : 42,
        "name" : "江滨公园",
        "lng" : 119.562529,
        "lat" : 26.482403999999999
      }
    },
    {
      "type" : "Feature",
      "id" : 43,
      "geometry" : {
        "type" : "Point",
        "coordinates" : [
          119.55386781478897,
          26.506382232560512
        ]
      },
      "properties" : {
        "FID" : 43,
        "name" : "港头天主教堂",
        "lng" : 119.55840999999999,
        "lat" : 26.502886
      }
    },
    {
      "type" : "Feature",
      "id" : 44,
      "geometry" : {
        "type" : "Point",
        "coordinates" : [
          119.5346456385559,
          26.500133980330943
        ]
      },
      "properties" : {
        "FID" : 44,
        "name" : "紫霄岩寺",
        "lng" : 119.539241,
        "lat" : 26.496679
      }
    },
    {
      "type" : "Feature",
      "id" : 45,
      "geometry" : {
        "type" : "Point",
        "coordinates" : [
          119.52508487883517,
          26.479504627182514
        ]
      },
      "properties" : {
        "FID" : 45,
        "name" : "凤山镇管柄公园",
        "lng" : 119.52970999999999,
        "lat" : 26.476078999999999
      }
    },
    {
      "type" : "Feature",
      "id" : 46,
      "geometry" : {
        "type" : "Point",
        "coordinates" : [
          119.57899052093939,
          26.473356707463122
        ]
      },
      "properties" : {
        "FID" : 46,
        "name" : "天后宫",
        "lng" : 119.583484,
        "lat" : 26.469839
      }
    },
    {
      "type" : "Feature",
      "id" : 47,
      "geometry" : {
        "type" : "Point",
        "coordinates" : [
          119.5498127465942,
          26.492022488993566
        ]
      },
      "properties" : {
        "FID" : 47,
        "name" : "闽星广场",
        "lng" : 119.55436400000001,
        "lat" : 26.488537000000001
      }
    },
    {
      "type" : "Feature",
      "id" : 48,
      "geometry" : {
        "type" : "Point",
        "coordinates" : [
          119.54220349437439,
          26.498409737916756
        ]
      },
      "properties" : {
        "FID" : 48,
        "name" : "梅岭公园",
        "lng" : 119.54677599999999,
        "lat" : 26.494938000000001
      }
    },
    {
      "type" : "Feature",
      "id" : 49,
      "geometry" : {
        "type" : "Point",
        "coordinates" : [
          119.53371147616132,
          26.489644145308581
        ]
      },
      "properties" : {
        "FID" : 49,
        "name" : "西外路关帝庙",
        "lng" : 119.538309,
        "lat" : 26.486194000000001
      }
    },
    {
      "type" : "Feature",
      "id" : 50,
      "geometry" : {
        "type" : "Point",
        "coordinates" : [
          119.55368692768434,
          26.485368763456485
        ]
      },
      "properties" : {
        "FID" : 50,
        "name" : "莲花山广场",
        "lng" : 119.558228,
        "lat" : 26.481877999999998
      }
    },
    {
      "type" : "Feature",
      "id" : 51,
      "geometry" : {
        "type" : "Point",
        "coordinates" : [
          119.54888855723549,
          26.489131009463424
        ]
      },
      "properties" : {
        "FID" : 51,
        "name" : "妈祖宫",
        "lng" : 119.553442,
        "lat" : 26.485648000000001
      }
    },
    {
      "type" : "Feature",
      "id" : 52,
      "geometry" : {
        "type" : "Point",
        "coordinates" : [
          119.33729001308699,
          26.470713269668313
        ]
      },
      "properties" : {
        "FID" : 52,
        "name" : "罗源县飞竹镇凤山寺",
        "lng" : 119.342204,
        "lat" : 26.467495
      }
    },
    {
      "type" : "Feature",
      "id" : 53,
      "geometry" : {
        "type" : "Point",
        "coordinates" : [
          119.56441631776107,
          26.486028092426157
        ]
      },
      "properties" : {
        "FID" : 53,
        "name" : "渡头湿地公园",
        "lng" : 119.568934,
        "lat" : 26.482520999999998
      }
    },
    {
      "type" : "Feature",
      "id" : 54,
      "geometry" : {
        "type" : "Point",
        "coordinates" : [
          119.54153312825079,
          26.490712386361867
        ]
      },
      "properties" : {
        "FID" : 54,
        "name" : "罗源城关基督教堂",
        "lng" : 119.54610700000001,
        "lat" : 26.487244
      }
    },
    {
      "type" : "Feature",
      "id" : 55,
      "geometry" : {
        "type" : "Point",
        "coordinates" : [
          119.58493782883509,
          26.476661603316952
        ]
      },
      "properties" : {
        "FID" : 55,
        "name" : "师公宫",
        "lng" : 119.58942500000001,
        "lat" : 26.473140000000001
      }
    },
    {
      "type" : "Feature",
      "id" : 56,
      "geometry" : {
        "type" : "Point",
        "coordinates" : [
          119.58576791263056,
          26.499732800580354
        ]
      },
      "properties" : {
        "FID" : 56,
        "name" : "金粟寺",
        "lng" : 119.590256,
        "lat" : 26.496205
      }
    },
    {
      "type" : "Feature",
      "id" : 57,
      "geometry" : {
        "type" : "Point",
        "coordinates" : [
          119.3393561454443,
          26.458919104545966
        ]
      },
      "properties" : {
        "FID" : 57,
        "name" : "飞竹镇集镇文体公园",
        "lng" : 119.344273,
        "lat" : 26.455708000000001
      }
    },
    {
      "type" : "Feature",
      "id" : 58,
      "geometry" : {
        "type" : "Point",
        "coordinates" : [
          119.54277077935085,
          26.489489737868315
        ]
      },
      "properties" : {
        "FID" : 58,
        "name" : "凤蝶广场",
        "lng" : 119.547341,
        "lat" : 26.486018999999999
      }
    },
    {
      "type" : "Feature",
      "id" : 59,
      "geometry" : {
        "type" : "Point",
        "coordinates" : [
          119.53458829426155,
          26.488867055971152
        ]
      },
      "properties" : {
        "FID" : 59,
        "name" : "舒心亭",
        "lng" : 119.53918299999999,
        "lat" : 26.485415
      }
    },
    {
      "type" : "Feature",
      "id" : 60,
      "geometry" : {
        "type" : "Point",
        "coordinates" : [
          119.55104628934565,
          26.486740428208659
        ]
      },
      "properties" : {
        "FID" : 60,
        "name" : "江夏流芳-黄氏大宗祠",
        "lng" : 119.555594,
        "lat" : 26.483253999999999
      }
    },
    {
      "type" : "Feature",
      "id" : 61,
      "geometry" : {
        "type" : "Point",
        "coordinates" : [
          119.50724678519347,
          26.456596929251788
        ]
      },
      "properties" : {
        "FID" : 61,
        "name" : "罗源县西湖寺",
        "lng" : 119.511934,
        "lat" : 26.453227999999999
      }
    },
    {
      "type" : "Feature",
      "id" : 62,
      "geometry" : {
        "type" : "Point",
        "coordinates" : [
          119.53979512301224,
          26.489524260853013
        ]
      },
      "properties" : {
        "FID" : 62,
        "name" : "罗源县水陆寺",
        "lng" : 119.544374,
        "lat" : 26.486059999999998
      }
    },
    {
      "type" : "Feature",
      "id" : 63,
      "geometry" : {
        "type" : "Point",
        "coordinates" : [
          119.43449402927835,
          26.437587808913364
        ]
      },
      "properties" : {
        "FID" : 63,
        "name" : "凤坂基督教堂",
        "lng" : 119.439418,
        "lat" : 26.434414
      }
    },
    {
      "type" : "Feature",
      "id" : 64,
      "geometry" : {
        "type" : "Point",
        "coordinates" : [
          119.54309702315568,
          26.485235336110495
        ]
      },
      "properties" : {
        "FID" : 64,
        "name" : "圣水寺",
        "lng" : 119.54766600000001,
        "lat" : 26.481764999999999
      }
    },
    {
      "type" : "Feature",
      "id" : 65,
      "geometry" : {
        "type" : "Point",
        "coordinates" : [
          119.21788340672842,
          26.444733665159742
        ]
      },
      "properties" : {
        "FID" : 65,
        "name" : "中国畲山水景区",
        "lng" : 119.22269,
        "lat" : 26.441414999999999
      }
    },
    {
      "type" : "Feature",
      "id" : 66,
      "geometry" : {
        "type" : "Point",
        "coordinates" : [
          119.53972928889206,
          26.484647857541237
        ]
      },
      "properties" : {
        "FID" : 66,
        "name" : "南门天主教堂",
        "lng" : 119.544308,
        "lat" : 26.481185
      }
    },
    {
      "type" : "Feature",
      "id" : 67,
      "geometry" : {
        "type" : "Point",
        "coordinates" : [
          119.54333818785852,
          26.492263640623008
        ]
      },
      "properties" : {
        "FID" : 67,
        "name" : "凤山公园",
        "lng" : 119.547907,
        "lat" : 26.488790999999999
      }
    },
    {
      "type" : "Feature",
      "id" : 68,
      "geometry" : {
        "type" : "Point",
        "coordinates" : [
          119.61807273570898,
          26.468476023372006
        ]
      },
      "properties" : {
        "FID" : 68,
        "name" : "白马尊王庙(迹头)",
        "lng" : 119.622553,
        "lat" : 26.464967999999999
      }
    },
    {
      "type" : "Feature",
      "id" : 69,
      "geometry" : {
        "type" : "Point",
        "coordinates" : [
          119.54195595972996,
          26.509513805913983
        ]
      },
      "properties" : {
        "FID" : 69,
        "name" : "进水宫",
        "lng" : 119.54653,
        "lat" : 26.506039999999999
      }
    },
    {
      "type" : "Feature",
      "id" : 70,
      "geometry" : {
        "type" : "Point",
        "coordinates" : [
          119.54248533840664,
          26.484414820131576
        ]
      },
      "properties" : {
        "FID" : 70,
        "name" : "万世宗师",
        "lng" : 119.547056,
        "lat" : 26.480945999999999
      }
    },
    {
      "type" : "Feature",
      "id" : 71,
      "geometry" : {
        "type" : "Point",
        "coordinates" : [
          119.55879762695417,
          26.513930914075981
        ]
      },
      "properties" : {
        "FID" : 71,
        "name" : "忠烈庙",
        "lng" : 119.563329,
        "lat" : 26.510425000000001
      }
    },
    {
      "type" : "Feature",
      "id" : 72,
      "geometry" : {
        "type" : "Point",
        "coordinates" : [
          119.56708846267233,
          26.470774248521099
        ]
      },
      "properties" : {
        "FID" : 72,
        "name" : "隐岩禅寺",
        "lng" : 119.5716,
        "lat" : 26.467268000000001
      }
    },
    {
      "type" : "Feature",
      "id" : 73,
      "geometry" : {
        "type" : "Point",
        "coordinates" : [
          119.55687005422163,
          26.530921454137619
        ]
      },
      "properties" : {
        "FID" : 73,
        "name" : "广源禅寺",
        "lng" : 119.561407,
        "lat" : 26.527415000000001
      }
    },
    {
      "type" : "Feature",
      "id" : 74,
      "geometry" : {
        "type" : "Point",
        "coordinates" : [
          119.54716115584046,
          26.513741506592265
        ]
      },
      "properties" : {
        "FID" : 74,
        "name" : "桂林村健身活动中心陈氏宗祠",
        "lng" : 119.551721,
        "lat" : 26.510255999999998
      }
    },
    {
      "type" : "Feature",
      "id" : 75,
      "geometry" : {
        "type" : "Point",
        "coordinates" : [
          119.60470671060425,
          26.473233357762407
        ]
      },
      "properties" : {
        "FID" : 75,
        "name" : "白马尊王庙(下店)",
        "lng" : 119.609184,
        "lat" : 26.469714
      }
    },
    {
      "type" : "Feature",
      "id" : 76,
      "geometry" : {
        "type" : "Point",
        "coordinates" : [
          119.5422958279533,
          26.483967297041652
        ]
      },
      "properties" : {
        "FID" : 76,
        "name" : "红军解放罗源城纪念碑",
        "lng" : 119.54686700000001,
        "lat" : 26.480498999999998
      }
    },
    {
      "type" : "Feature",
      "id" : 77,
      "geometry" : {
        "type" : "Point",
        "coordinates" : [
          119.73361467901582,
          26.527174993097397
        ]
      },
      "properties" : {
        "FID" : 77,
        "name" : "白马禅寺",
        "lng" : 119.738213,
        "lat" : 26.523824000000001
      }
    },
    {
      "type" : "Feature",
      "id" : 78,
      "geometry" : {
        "type" : "Point",
        "coordinates" : [
          119.4322539210693,
          26.430056771038196
        ]
      },
      "properties" : {
        "FID" : 78,
        "name" : "祝丰禅寺",
        "lng" : 119.43718200000001,
        "lat" : 26.426888999999999
      }
    },
    {
      "type" : "Feature",
      "id" : 79,
      "geometry" : {
        "type" : "Point",
        "coordinates" : [
          119.43501513049324,
          26.437881759654275
        ]
      },
      "properties" : {
        "FID" : 79,
        "name" : "鼓流宫",
        "lng" : 119.439938,
        "lat" : 26.434707
      }
    },
    {
      "type" : "Feature",
      "id" : 80,
      "geometry" : {
        "type" : "Point",
        "coordinates" : [
          119.55859800319043,
          26.529984967805262
        ]
      },
      "properties" : {
        "FID" : 80,
        "name" : "茶山仙茅禅寺",
        "lng" : 119.563131,
        "lat" : 26.526475999999999
      }
    },
    {
      "type" : "Feature",
      "id" : 81,
      "geometry" : {
        "type" : "Point",
        "coordinates" : [
          119.54683670209056,
          26.494524367924811
        ]
      },
      "properties" : {
        "FID" : 81,
        "name" : "罗源城关天主教堂",
        "lng" : 119.551396,
        "lat" : 26.491043999999999
      }
    },
    {
      "type" : "Feature",
      "id" : 82,
      "geometry" : {
        "type" : "Point",
        "coordinates" : [
          119.5421329599609,
          26.489373343211632
        ]
      },
      "properties" : {
        "FID" : 82,
        "name" : "万寿塔",
        "lng" : 119.546705,
        "lat" : 26.485904000000001
      }
    },
    {
      "type" : "Feature",
      "id" : 83,
      "geometry" : {
        "type" : "Point",
        "coordinates" : [
          119.55325106798369,
          26.482668300752994
        ]
      },
      "properties" : {
        "FID" : 83,
        "name" : "陈氏总祠",
        "lng" : 119.557793,
        "lat" : 26.479178999999998
      }
    },
    {
      "type" : "Feature",
      "id" : 84,
      "geometry" : {
        "type" : "Point",
        "coordinates" : [
          119.41533400194946,
          26.435299581059496
        ]
      },
      "properties" : {
        "FID" : 84,
        "name" : "青云寺(观音阁)",
        "lng" : 119.42028999999999,
        "lat" : 26.43215
      }
    },
    {
      "type" : "Feature",
      "id" : 85,
      "geometry" : {
        "type" : "Point",
        "coordinates" : [
          119.55033079769818,
          26.495824398530278
        ]
      },
      "properties" : {
        "FID" : 85,
        "name" : "岐阳郑氏宗祠",
        "lng" : 119.55488099999999,
        "lat" : 26.492336999999999
      }
    },
    {
      "type" : "Feature",
      "id" : 86,
      "geometry" : {
        "type" : "Point",
        "coordinates" : [
          119.28210832521434,
          26.51013476026516
        ]
      },
      "properties" : {
        "FID" : 86,
        "name" : "旃檀寺",
        "lng" : 119.28692700000001,
        "lat" : 26.506810000000002
      }
    },
    {
      "type" : "Feature",
      "id" : 87,
      "geometry" : {
        "type" : "Point",
        "coordinates" : [
          119.54177457102396,
          26.4941757763109
        ]
      },
      "properties" : {
        "FID" : 87,
        "name" : "慈林观音堂",
        "lng" : 119.54634799999999,
        "lat" : 26.490705999999999
      }
    },
    {
      "type" : "Feature",
      "id" : 88,
      "geometry" : {
        "type" : "Point",
        "coordinates" : [
          119.55095309015499,
          26.48624112866209
        ]
      },
      "properties" : {
        "FID" : 88,
        "name" : "江夏流芳",
        "lng" : 119.55550100000001,
        "lat" : 26.482755000000001
      }
    },
    {
      "type" : "Feature",
      "id" : 89,
      "geometry" : {
        "type" : "Point",
        "coordinates" : [
          119.43272050265374,
          26.434939114747525
        ]
      },
      "properties" : {
        "FID" : 89,
        "name" : "林氏宗祠",
        "lng" : 119.437648,
        "lat" : 26.431768999999999
      }
    },
    {
      "type" : "Feature",
      "id" : 90,
      "geometry" : {
        "type" : "Point",
        "coordinates" : [
          119.55881666510224,
          26.513980953990721
        ]
      },
      "properties" : {
        "FID" : 90,
        "name" : "齐天大圣府",
        "lng" : 119.563348,
        "lat" : 26.510475
      }
    },
    {
      "type" : "Feature",
      "id" : 91,
      "geometry" : {
        "type" : "Point",
        "coordinates" : [
          119.54861784952948,
          26.489095482176332
        ]
      },
      "properties" : {
        "FID" : 91,
        "name" : "天后宫",
        "lng" : 119.553172,
        "lat" : 26.485613000000001
      }
    },
    {
      "type" : "Feature",
      "id" : 92,
      "geometry" : {
        "type" : "Point",
        "coordinates" : [
          119.57141436633403,
          26.491385360788083
        ]
      },
      "properties" : {
        "FID" : 92,
        "name" : "杨夫人宫",
        "lng" : 119.57592,
        "lat" : 26.487869
      }
    },
    {
      "type" : "Feature",
      "id" : 93,
      "geometry" : {
        "type" : "Point",
        "coordinates" : [
          119.56714252142233,
          26.484911134088708
        ]
      },
      "properties" : {
        "FID" : 93,
        "name" : "渡头境",
        "lng" : 119.57165500000001,
        "lat" : 26.481401000000002
      }
    },
    {
      "type" : "Feature",
      "id" : 94,
      "geometry" : {
        "type" : "Point",
        "coordinates" : [
          119.28208801966123,
          26.488236516550096
        ]
      },
      "properties" : {
        "FID" : 94,
        "name" : "廷洋宫",
        "lng" : 119.286905,
        "lat" : 26.484916999999999
      }
    },
    {
      "type" : "Feature",
      "id" : 95,
      "geometry" : {
        "type" : "Point",
        "coordinates" : [
          119.58661638552564,
          26.476407090139435
        ]
      },
      "properties" : {
        "FID" : 95,
        "name" : "滨海古街",
        "lng" : 119.59110200000001,
        "lat" : 26.472885000000002
      }
    },
    {
      "type" : "Feature",
      "id" : 96,
      "geometry" : {
        "type" : "Point",
        "coordinates" : [
          119.56971615552297,
          26.442441673096745
        ]
      },
      "properties" : {
        "FID" : 96,
        "name" : "观音寺",
        "lng" : 119.57422099999999,
        "lat" : 26.438941
      }
    },
    {
      "type" : "Feature",
      "id" : 97,
      "geometry" : {
        "type" : "Point",
        "coordinates" : [
          119.42934777055868,
          26.435562298468788
        ]
      },
      "properties" : {
        "FID" : 97,
        "name" : "余氏宗祠",
        "lng" : 119.434282,
        "lat" : 26.432397000000002
      }
    },
    {
      "type" : "Feature",
      "id" : 98,
      "geometry" : {
        "type" : "Point",
        "coordinates" : [
          119.43582313249135,
          26.4348251082288
        ]
      },
      "properties" : {
        "FID" : 98,
        "name" : "凤坂天主教堂",
        "lng" : 119.440744,
        "lat" : 26.431650000000001
      }
    },
    {
      "type" : "Feature",
      "id" : 99,
      "geometry" : {
        "type" : "Point",
        "coordinates" : [
          119.43020961607084,
          26.433103726194972
        ]
      },
      "properties" : {
        "FID" : 99,
        "name" : "郑氏宗祠",
        "lng" : 119.435142,
        "lat" : 26.429938
      }
    },
    {
      "type" : "Feature",
      "id" : 100,
      "geometry" : {
        "type" : "Point",
        "coordinates" : [
          119.57192342361702,
          26.488082012645016
        ]
      },
      "properties" : {
        "FID" : 100,
        "name" : "罗源县渡头村观音堂",
        "lng" : 119.57642800000001,
        "lat" : 26.484566000000001
      }
    },
    {
      "type" : "Feature",
      "id" : 101,
      "geometry" : {
        "type" : "Point",
        "coordinates" : [
          119.55971552366708,
          26.51531459346192
        ]
      },
      "properties" : {
        "FID" : 101,
        "name" : "陈氏宗祠",
        "lng" : 119.564245,
        "lat" : 26.511807000000001
      }
    },
    {
      "type" : "Feature",
      "id" : 102,
      "geometry" : {
        "type" : "Point",
        "coordinates" : [
          119.62173350188738,
          26.442620369123929
        ]
      },
      "properties" : {
        "FID" : 102,
        "name" : "巽屿村红色主题公园",
        "lng" : 119.626214,
        "lat" : 26.439124
      }
    },
    {
      "type" : "Feature",
      "id" : 103,
      "geometry" : {
        "type" : "Point",
        "coordinates" : [
          119.54298885143065,
          26.469866944330452
        ]
      },
      "properties" : {
        "FID" : 103,
        "name" : "圣安寺",
        "lng" : 119.547557,
        "lat" : 26.466401000000001
      }
    },
    {
      "type" : "Feature",
      "id" : 104,
      "geometry" : {
        "type" : "Point",
        "coordinates" : [
          119.41615417215704,
          26.433126541044871
        ]
      },
      "properties" : {
        "FID" : 104,
        "name" : "马鞍宫",
        "lng" : 119.421109,
        "lat" : 26.429977000000001
      }
    },
    {
      "type" : "Feature",
      "id" : 105,
      "geometry" : {
        "type" : "Point",
        "coordinates" : [
          119.68092210076327,
          26.565282369758407
        ]
      },
      "properties" : {
        "FID" : 105,
        "name" : "白马仙峰三清宫",
        "lng" : 119.685486,
        "lat" : 26.561858000000001
      }
    },
    {
      "type" : "Feature",
      "id" : 106,
      "geometry" : {
        "type" : "Point",
        "coordinates" : [
          119.6026532667198,
          26.463478508249093
        ]
      },
      "properties" : {
        "FID" : 106,
        "name" : "罗源音乐喷泉",
        "lng" : 119.60713,
        "lat" : 26.459961
      }
    },
    {
      "type" : "Feature",
      "id" : 107,
      "geometry" : {
        "type" : "Point",
        "coordinates" : [
          119.32206797354867,
          26.537831711761246
        ]
      },
      "properties" : {
        "FID" : 107,
        "name" : "共罗源县守善区党支部(旧址)",
        "lng" : 119.326958,
        "lat" : 26.534569000000001
      }
    },
    {
      "type" : "Feature",
      "id" : 108,
      "geometry" : {
        "type" : "Point",
        "coordinates" : [
          119.40250612254208,
          26.431312617021131
        ]
      },
      "properties" : {
        "FID" : 108,
        "name" : "白马尊王宫",
        "lng" : 119.407473,
        "lat" : 26.428170999999999
      }
    },
    {
      "type" : "Feature",
      "id" : 109,
      "geometry" : {
        "type" : "Point",
        "coordinates" : [
          119.57331141966446,
          26.544646560163308
        ]
      },
      "properties" : {
        "FID" : 109,
        "name" : "飞鸾岭",
        "lng" : 119.57781799999999,
        "lat" : 26.541117
      }
    },
    {
      "type" : "Feature",
      "id" : 110,
      "geometry" : {
        "type" : "Point",
        "coordinates" : [
          119.54340638357542,
          26.492228775676445
        ]
      },
      "properties" : {
        "FID" : 110,
        "name" : "曲艺亭",
        "lng" : 119.54797499999999,
        "lat" : 26.488755999999999
      }
    },
    {
      "type" : "Feature",
      "id" : 111,
      "geometry" : {
        "type" : "Point",
        "coordinates" : [
          119.61311027415523,
          26.435017288541232
        ]
      },
      "properties" : {
        "FID" : 111,
        "name" : "东岳泰山府",
        "lng" : 119.617586,
        "lat" : 26.431515000000001
      }
    },
    {
      "type" : "Feature",
      "id" : 112,
      "geometry" : {
        "type" : "Point",
        "coordinates" : [
          119.43279185430019,
          26.432279346921653
        ]
      },
      "properties" : {
        "FID" : 112,
        "name" : "水尾宫",
        "lng" : 119.437719,
        "lat" : 26.429110000000001
      }
    },
    {
      "type" : "Feature",
      "id" : 113,
      "geometry" : {
        "type" : "Point",
        "coordinates" : [
          119.28507265455818,
          26.439987589981499
        ]
      },
      "properties" : {
        "FID" : 113,
        "name" : "福湖畲族公园",
        "lng" : 119.28989,
        "lat" : 26.436686000000002
      }
    },
    {
      "type" : "Feature",
      "id" : 114,
      "geometry" : {
        "type" : "Point",
        "coordinates" : [
          119.5741890093025,
          26.459327118348856
        ]
      },
      "properties" : {
        "FID" : 114,
        "name" : "罗源站站前广场",
        "lng" : 119.578688,
        "lat" : 26.455817
      }
    },
    {
      "type" : "Feature",
      "id" : 115,
      "geometry" : {
        "type" : "Point",
        "coordinates" : [
          119.600937442857,
          26.4572873162417
        ]
      },
      "properties" : {
        "FID" : 115,
        "name" : "罗源湾海洋世界旅游度假区-售货亭",
        "lng" : 119.605414,
        "lat" : 26.453771
      }
    },
    {
      "type" : "Feature",
      "id" : 116,
      "geometry" : {
        "type" : "Point",
        "coordinates" : [
          119.58137320689823,
          26.475329639144697
        ]
      },
      "properties" : {
        "FID" : 116,
        "name" : "松海禅寺",
        "lng" : 119.585864,
        "lat" : 26.471810000000001
      }
    },
    {
      "type" : "Feature",
      "id" : 117,
      "geometry" : {
        "type" : "Point",
        "coordinates" : [
          119.32206797354867,
          26.537831711761246
        ]
      },
      "properties" : {
        "FID" : 117,
        "name" : "罗源县苏维埃政府(旧址)",
        "lng" : 119.326958,
        "lat" : 26.534569000000001
      }
    },
    {
      "type" : "Feature",
      "id" : 118,
      "geometry" : {
        "type" : "Point",
        "coordinates" : [
          119.57297809111014,
          26.515013389411482
        ]
      },
      "properties" : {
        "FID" : 118,
        "name" : "翠峰禅寺",
        "lng" : 119.577483,
        "lat" : 26.511489999999998
      }
    },
    {
      "type" : "Feature",
      "id" : 119,
      "geometry" : {
        "type" : "Point",
        "coordinates" : [
          119.75177958230175,
          26.55676129074563
        ]
      },
      "properties" : {
        "FID" : 119,
        "name" : "宝明寺",
        "lng" : 119.75636900000001,
        "lat" : 26.553407
      }
    },
    {
      "type" : "Feature",
      "id" : 120,
      "geometry" : {
        "type" : "Point",
        "coordinates" : [
          119.5698243194514,
          26.442698868415516
        ]
      },
      "properties" : {
        "FID" : 120,
        "name" : "静心居",
        "lng" : 119.57432900000001,
        "lat" : 26.439198000000001
      }
    },
    {
      "type" : "Feature",
      "id" : 121,
      "geometry" : {
        "type" : "Point",
        "coordinates" : [
          119.59988122251268,
          26.457055573408685
        ]
      },
      "properties" : {
        "FID" : 121,
        "name" : "旋转木马",
        "lng" : 119.604358,
        "lat" : 26.453538999999999
      }
    },
    {
      "type" : "Feature",
      "id" : 122,
      "geometry" : {
        "type" : "Point",
        "coordinates" : [
          119.65259020939259,
          26.441210734483253
        ]
      },
      "properties" : {
        "FID" : 122,
        "name" : "文体公园",
        "lng" : 119.657104,
        "lat" : 26.437761999999999
      }
    },
    {
      "type" : "Feature",
      "id" : 123,
      "geometry" : {
        "type" : "Point",
        "coordinates" : [
          119.75216446073374,
          26.550199300934878
        ]
      },
      "properties" : {
        "FID" : 123,
        "name" : "集福亭",
        "lng" : 119.756753,
        "lat" : 26.546845999999999
      }
    },
    {
      "type" : "Feature",
      "id" : 124,
      "geometry" : {
        "type" : "Point",
        "coordinates" : [
          119.77030847199701,
          26.567810526528845
        ]
      },
      "properties" : {
        "FID" : 124,
        "name" : "井水渔村旅游度假区",
        "lng" : 119.774873,
        "lat" : 26.564444000000002
      }
    },
    {
      "type" : "Feature",
      "id" : 125,
      "geometry" : {
        "type" : "Point",
        "coordinates" : [
          119.63171963715146,
          26.439017474986056
        ]
      },
      "properties" : {
        "FID" : 125,
        "name" : "红树林公园",
        "lng" : 119.636208,
        "lat" : 26.435535000000002
      }
    },
    {
      "type" : "Feature",
      "id" : 126,
      "geometry" : {
        "type" : "Point",
        "coordinates" : [
          119.73477228595171,
          26.482663149354426
        ]
      },
      "properties" : {
        "FID" : 126,
        "name" : "碧岩寺",
        "lng" : 119.739367,
        "lat" : 26.479323000000001
      }
    },
    {
      "type" : "Feature",
      "id" : 127,
      "geometry" : {
        "type" : "Point",
        "coordinates" : [
          119.88472284805557,
          26.325584184165148
        ]
      },
      "properties" : {
        "FID" : 127,
        "name" : "簸箕山",
        "lng" : 119.88899000000001,
        "lat" : 26.322123999999999
      }
    },
    {
      "type" : "Feature",
      "id" : 128,
      "geometry" : {
        "type" : "Point",
        "coordinates" : [
          119.88644526581932,
          26.325504016243212
        ]
      },
      "properties" : {
        "FID" : 128,
        "name" : "白坛顶公园(旧车站公园)",
        "lng" : 119.89071,
        "lat" : 26.322043000000001
      }
    },
    {
      "type" : "Feature",
      "id" : 129,
      "geometry" : {
        "type" : "Point",
        "coordinates" : [
          119.85360391510645,
          26.333862260889518
        ]
      },
      "properties" : {
        "FID" : 129,
        "name" : "顺天尊王宫",
        "lng" : 119.857935,
        "lat" : 26.330431999999998
      }
    },
    {
      "type" : "Feature",
      "id" : 130,
      "geometry" : {
        "type" : "Point",
        "coordinates" : [
          119.88990380313332,
          26.32416577048156
        ]
      },
      "properties" : {
        "FID" : 130,
        "name" : "何氏宗祠",
        "lng" : 119.894164,
        "lat" : 26.320703999999999
      }
    },
    {
      "type" : "Feature",
      "id" : 131,
      "geometry" : {
        "type" : "Point",
        "coordinates" : [
          119.89017092784894,
          26.326906136507958
        ]
      },
      "properties" : {
        "FID" : 131,
        "name" : "基督教堂",
        "lng" : 119.894431,
        "lat" : 26.323443000000001
      }
    },
    {
      "type" : "Feature",
      "id" : 132,
      "geometry" : {
        "type" : "Point",
        "coordinates" : [
          119.8411644219745,
          26.338800832642352
        ]
      },
      "properties" : {
        "FID" : 132,
        "name" : "普照禅寺",
        "lng" : 119.845529,
        "lat" : 26.335388999999999
      }
    },
    {
      "type" : "Feature",
      "id" : 133,
      "geometry" : {
        "type" : "Point",
        "coordinates" : [
          119.89542560173238,
          26.326262914581289
        ]
      },
      "properties" : {
        "FID" : 133,
        "name" : "黄岐沙滩",
        "lng" : 119.89968,
        "lat" : 26.322799
      }
    },
    {
      "type" : "Feature",
      "id" : 134,
      "geometry" : {
        "type" : "Point",
        "coordinates" : [
          119.84776618177658,
          26.369408408985525
        ]
      },
      "properties" : {
        "FID" : 134,
        "name" : "白云寺",
        "lng" : 119.852115,
        "lat" : 26.365971999999999
      }
    },
    {
      "type" : "Feature",
      "id" : 135,
      "geometry" : {
        "type" : "Point",
        "coordinates" : [
          119.81304871839437,
          26.327553550492265
        ]
      },
      "properties" : {
        "FID" : 135,
        "name" : "天福渔夫岛景区",
        "lng" : 119.817493,
        "lat" : 26.324199
      }
    },
    {
      "type" : "Feature",
      "id" : 136,
      "geometry" : {
        "type" : "Point",
        "coordinates" : [
          119.85454065500173,
          26.356397696778849
        ]
      },
      "properties" : {
        "FID" : 136,
        "name" : "沙沃沙滩",
        "lng" : 119.85887099999999,
        "lat" : 26.352955999999999
      }
    },
    {
      "type" : "Feature",
      "id" : 137,
      "geometry" : {
        "type" : "Point",
        "coordinates" : [
          119.85121331600334,
          26.368286549563734
        ]
      },
      "properties" : {
        "FID" : 137,
        "name" : "奇达旗冠顶",
        "lng" : 119.855553,
        "lat" : 26.364844999999999
      }
    },
    {
      "type" : "Feature",
      "id" : 138,
      "geometry" : {
        "type" : "Point",
        "coordinates" : [
          119.85750122829258,
          26.352779520553927
        ]
      },
      "properties" : {
        "FID" : 138,
        "name" : "沙沃村虎头山栈道",
        "lng" : 119.861824,
        "lat" : 26.349335
      }
    },
    {
      "type" : "Feature",
      "id" : 139,
      "geometry" : {
        "type" : "Point",
        "coordinates" : [
          119.89669120208987,
          26.320103103100564
        ]
      },
      "properties" : {
        "FID" : 139,
        "name" : "畚箕山战备遗址游览区",
        "lng" : 119.900944,
        "lat" : 26.316642000000002
      }
    },
    {
      "type" : "Feature",
      "id" : 140,
      "geometry" : {
        "type" : "Point",
        "coordinates" : [
          119.86227868199114,
          26.378255799185283
        ]
      },
      "properties" : {
        "FID" : 140,
        "name" : "奇达观音座",
        "lng" : 119.866592,
        "lat" : 26.374794000000001
      }
    },
    {
      "type" : "Feature",
      "id" : 141,
      "geometry" : {
        "type" : "Point",
        "coordinates" : [
          119.85476287338122,
          26.36110204391353
        ]
      },
      "properties" : {
        "FID" : 141,
        "name" : "白云岭道观",
        "lng" : 119.859093,
        "lat" : 26.357658000000001
      }
    },
    {
      "type" : "Feature",
      "id" : 142,
      "geometry" : {
        "type" : "Point",
        "coordinates" : [
          119.85494627926695,
          26.361835631981883
        ]
      },
      "properties" : {
        "FID" : 142,
        "name" : "白云庵",
        "lng" : 119.85927599999999,
        "lat" : 26.358391000000001
      }
    },
    {
      "type" : "Feature",
      "id" : 143,
      "geometry" : {
        "type" : "Point",
        "coordinates" : [
          119.81979011765151,
          26.326408571302874
        ]
      },
      "properties" : {
        "FID" : 143,
        "name" : "连江灵山寺",
        "lng" : 119.824215,
        "lat" : 26.323042000000001
      }
    },
    {
      "type" : "Feature",
      "id" : 144,
      "geometry" : {
        "type" : "Point",
        "coordinates" : [
          119.80638160116473,
          26.32002696778844
        ]
      },
      "properties" : {
        "FID" : 144,
        "name" : "七彩海公园",
        "lng" : 119.810844,
        "lat" : 26.316687999999999
      }
    },
    {
      "type" : "Feature",
      "id" : 145,
      "geometry" : {
        "type" : "Point",
        "coordinates" : [
          119.82769724742667,
          26.336663172820419
        ]
      },
      "properties" : {
        "FID" : 145,
        "name" : "上牛顶普照寺",
        "lng" : 119.8321,
        "lat" : 26.333276999999999
      }
    },
    {
      "type" : "Feature",
      "id" : 146,
      "geometry" : {
        "type" : "Point",
        "coordinates" : [
          119.80618324030448,
          26.290052916884513
        ]
      },
      "properties" : {
        "FID" : 146,
        "name" : "海潮寺",
        "lng" : 119.810644,
        "lat" : 26.286729000000001
      }
    },
    {
      "type" : "Feature",
      "id" : 147,
      "geometry" : {
        "type" : "Point",
        "coordinates" : [
          119.86847049744897,
          26.374748965393774
        ]
      },
      "properties" : {
        "FID" : 147,
        "name" : "金师公之庙",
        "lng" : 119.87277,
        "lat" : 26.371281
      }
    },
    {
      "type" : "Feature",
      "id" : 148,
      "geometry" : {
        "type" : "Point",
        "coordinates" : [
          119.87028743542848,
          26.371866784689399
        ]
      },
      "properties" : {
        "FID" : 148,
        "name" : "恩向门",
        "lng" : 119.874583,
        "lat" : 26.368397999999999
      }
    },
    {
      "type" : "Feature",
      "id" : 149,
      "geometry" : {
        "type" : "Point",
        "coordinates" : [
          119.92653337262448,
          26.353924691808945
        ]
      },
      "properties" : {
        "FID" : 149,
        "name" : "廣安寺",
        "lng" : 119.930784,
        "lat" : 26.350466999999998
      }
    },
    {
      "type" : "Feature",
      "id" : 150,
      "geometry" : {
        "type" : "Point",
        "coordinates" : [
          119.78820948763635,
          26.311037356287994
        ]
      },
      "properties" : {
        "FID" : 150,
        "name" : "永宁禅寺",
        "lng" : 119.79271799999999,
        "lat" : 26.307732000000001
      }
    },
    {
      "type" : "Feature",
      "id" : 151,
      "geometry" : {
        "type" : "Point",
        "coordinates" : [
          119.79052931773391,
          26.279680005009823
        ]
      },
      "properties" : {
        "FID" : 151,
        "name" : "定海古城",
        "lng" : 119.79503,
        "lat" : 26.276387
      }
    },
    {
      "type" : "Feature",
      "id" : 152,
      "geometry" : {
        "type" : "Point",
        "coordinates" : [
          119.9205739906545,
          26.353582471502673
        ]
      },
      "properties" : {
        "FID" : 152,
        "name" : "虎东境",
        "lng" : 119.92482200000001,
        "lat" : 26.350117999999998
      }
    },
    {
      "type" : "Feature",
      "id" : 153,
      "geometry" : {
        "type" : "Point",
        "coordinates" : [
          119.79236458878339,
          26.282530225983564
        ]
      },
      "properties" : {
        "FID" : 153,
        "name" : "定海村甘棠观景平台",
        "lng" : 119.79686100000001,
        "lat" : 26.279233000000001
      }
    },
    {
      "type" : "Feature",
      "id" : 154,
      "geometry" : {
        "type" : "Point",
        "coordinates" : [
          119.94615613228504,
          26.3691267978685
        ]
      },
      "properties" : {
        "FID" : 154,
        "name" : "妈祖娘娘像",
        "lng" : 119.950428,
        "lat" : 26.365696
      }
    },
    {
      "type" : "Feature",
      "id" : 155,
      "geometry" : {
        "type" : "Point",
        "coordinates" : [
          119.7904460434433,
          26.280679399264351
        ]
      },
      "properties" : {
        "FID" : 155,
        "name" : "连江定海城隍庙",
        "lng" : 119.79494699999999,
        "lat" : 26.277386
      }
    },
    {
      "type" : "Feature",
      "id" : 156,
      "geometry" : {
        "type" : "Point",
        "coordinates" : [
          119.79457985989106,
          26.381525047320775
        ]
      },
      "properties" : {
        "FID" : 156,
        "name" : "厦宫革命老区纪念馆",
        "lng" : 119.79907799999999,
        "lat" : 26.378178999999999
      }
    },
    {
      "type" : "Feature",
      "id" : 157,
      "geometry" : {
        "type" : "Point",
        "coordinates" : [
          119.79120145291071,
          26.286444482388408
        ]
      },
      "properties" : {
        "FID" : 157,
        "name" : "自在禅寺",
        "lng" : 119.79570099999999,
        "lat" : 26.283147
      }
    },
    {
      "type" : "Feature",
      "id" : 158,
      "geometry" : {
        "type" : "Point",
        "coordinates" : [
          119.92560344298182,
          26.360177559119695
        ]
      },
      "properties" : {
        "FID" : 158,
        "name" : "长林寺",
        "lng" : 119.92985400000001,
        "lat" : 26.356715999999999
      }
    },
    {
      "type" : "Feature",
      "id" : 159,
      "geometry" : {
        "type" : "Point",
        "coordinates" : [
          119.78262562588668,
          26.299929386026164
        ]
      },
      "properties" : {
        "FID" : 159,
        "name" : "玄天上帝",
        "lng" : 119.78714600000001,
        "lat" : 26.296637
      }
    },
    {
      "type" : "Feature",
      "id" : 160,
      "geometry" : {
        "type" : "Point",
        "coordinates" : [
          119.92605910841037,
          26.361379494197514
        ]
      },
      "properties" : {
        "FID" : 160,
        "name" : "白马尊王府",
        "lng" : 119.93031000000001,
        "lat" : 26.357918000000002
      }
    },
    {
      "type" : "Feature",
      "id" : 161,
      "geometry" : {
        "type" : "Point",
        "coordinates" : [
          119.79518611790812,
          26.385280489742129
        ]
      },
      "properties" : {
        "FID" : 161,
        "name" : "陈氏宗祠",
        "lng" : 119.799683,
        "lat" : 26.381931999999999
      }
    },
    {
      "type" : "Feature",
      "id" : 162,
      "geometry" : {
        "type" : "Point",
        "coordinates" : [
          119.94608427283715,
          26.368617736309851
        ]
      },
      "properties" : {
        "FID" : 162,
        "name" : "苔菉镇北茭公园",
        "lng" : 119.950356,
        "lat" : 26.365186999999999
      }
    },
    {
      "type" : "Feature",
      "id" : 163,
      "geometry" : {
        "type" : "Point",
        "coordinates" : [
          119.79260261443889,
          26.385698643752225
        ]
      },
      "properties" : {
        "FID" : 163,
        "name" : "厦宫红军纪念公园",
        "lng" : 119.797106,
        "lat" : 26.382353999999999
      }
    },
    {
      "type" : "Feature",
      "id" : 164,
      "geometry" : {
        "type" : "Point",
        "coordinates" : [
          119.73808551240263,
          26.36035770570556
        ]
      },
      "properties" : {
        "FID" : 164,
        "name" : "海滨公园",
        "lng" : 119.74267,
        "lat" : 26.357061000000002
      }
    },
    {
      "type" : "Feature",
      "id" : 165,
      "geometry" : {
        "type" : "Point",
        "coordinates" : [
          119.79273126512659,
          26.381173046514832
        ]
      },
      "properties" : {
        "FID" : 165,
        "name" : "聚贤亭",
        "lng" : 119.797234,
        "lat" : 26.377829999999999
      }
    },
    {
      "type" : "Feature",
      "id" : 166,
      "geometry" : {
        "type" : "Point",
        "coordinates" : [
          119.94591654604076,
          26.368181903441201
        ]
      },
      "properties" : {
        "FID" : 166,
        "name" : "东昇禅寺",
        "lng" : 119.950188,
        "lat" : 26.364750999999998
      }
    },
    {
      "type" : "Feature",
      "id" : 167,
      "geometry" : {
        "type" : "Point",
        "coordinates" : [
          119.75799125051495,
          26.332805280822509
        ]
      },
      "properties" : {
        "FID" : 167,
        "name" : "泰山府公园",
        "lng" : 119.762557,
        "lat" : 26.329519000000001
      }
    },
    {
      "type" : "Feature",
      "id" : 168,
      "geometry" : {
        "type" : "Point",
        "coordinates" : [
          119.94616321682942,
          26.367807235601724
        ]
      },
      "properties" : {
        "FID" : 168,
        "name" : "北茭文体广场",
        "lng" : 119.950435,
        "lat" : 26.364377000000001
      }
    },
    {
      "type" : "Feature",
      "id" : 169,
      "geometry" : {
        "type" : "Point",
        "coordinates" : [
          119.76744267248471,
          26.337311300483204
        ]
      },
      "properties" : {
        "FID" : 169,
        "name" : "连江县坑里龙峰禅寺",
        "lng" : 119.771995,
        "lat" : 26.334016999999999
      }
    },
    {
      "type" : "Feature",
      "id" : 170,
      "geometry" : {
        "type" : "Point",
        "coordinates" : [
          119.94977918079005,
          26.375347579562259
        ]
      },
      "properties" : {
        "FID" : 170,
        "name" : "中国好望角",
        "lng" : 119.95405700000001,
        "lat" : 26.371922000000001
      }
    },
    {
      "type" : "Feature",
      "id" : 171,
      "geometry" : {
        "type" : "Point",
        "coordinates" : [
          119.75762395151271,
          26.317083760866144
        ]
      },
      "properties" : {
        "FID" : 171,
        "name" : "东山弥勒寺",
        "lng" : 119.76218900000001,
        "lat" : 26.313804999999999
      }
    },
    {
      "type" : "Feature",
      "id" : 172,
      "geometry" : {
        "type" : "Point",
        "coordinates" : [
          119.70574151522315,
          26.301435288858769
        ]
      },
      "properties" : {
        "FID" : 172,
        "name" : "慈云寺",
        "lng" : 119.710314,
        "lat" : 26.298138000000002
      }
    },
    {
      "type" : "Feature",
      "id" : 173,
      "geometry" : {
        "type" : "Point",
        "coordinates" : [
          119.69671566481445,
          26.280184901547841
        ]
      },
      "properties" : {
        "FID" : 173,
        "name" : "妈祖庙",
        "lng" : 119.701278,
        "lat" : 26.276885
      }
    },
    {
      "type" : "Feature",
      "id" : 174,
      "geometry" : {
        "type" : "Point",
        "coordinates" : [
          119.76286016154545,
          26.301962263863182
        ]
      },
      "properties" : {
        "FID" : 174,
        "name" : "天仙府",
        "lng" : 119.76741699999999,
        "lat" : 26.298687999999999
      }
    },
    {
      "type" : "Feature",
      "id" : 175,
      "geometry" : {
        "type" : "Point",
        "coordinates" : [
          119.66905650999578,
          26.303118151944069
        ]
      },
      "properties" : {
        "FID" : 175,
        "name" : "连江官坂峡山寺",
        "lng" : 119.67358400000001,
        "lat" : 26.299757
      }
    },
    {
      "type" : "Feature",
      "id" : 176,
      "geometry" : {
        "type" : "Point",
        "coordinates" : [
          119.7631208518237,
          26.338436687501318
        ]
      },
      "properties" : {
        "FID" : 176,
        "name" : "澄清宫",
        "lng" : 119.76768,
        "lat" : 26.335145000000001
      }
    },
    {
      "type" : "Feature",
      "id" : 177,
      "geometry" : {
        "type" : "Point",
        "coordinates" : [
          119.73207251817328,
          26.283212792897142
        ]
      },
      "properties" : {
        "FID" : 177,
        "name" : "定海湾沙滩",
        "lng" : 119.736653,
        "lat" : 26.279949999999999
      }
    },
    {
      "type" : "Feature",
      "id" : 178,
      "geometry" : {
        "type" : "Point",
        "coordinates" : [
          119.723209543324,
          26.312742447991578
        ]
      },
      "properties" : {
        "FID" : 178,
        "name" : "龙峰山积圣寺",
        "lng" : 119.72779199999999,
        "lat" : 26.309459
      }
    },
    {
      "type" : "Feature",
      "id" : 179,
      "geometry" : {
        "type" : "Point",
        "coordinates" : [
          119.76383858616568,
          26.302299070542549
        ]
      },
      "properties" : {
        "FID" : 179,
        "name" : "陈氏宗祠",
        "lng" : 119.768394,
        "lat" : 26.299023999999999
      }
    },
    {
      "type" : "Feature",
      "id" : 180,
      "geometry" : {
        "type" : "Point",
        "coordinates" : [
          119.75009511898142,
          26.325763539762011
        ]
      },
      "properties" : {
        "FID" : 180,
        "name" : "连江龙古山燕峰寺",
        "lng" : 119.75466900000001,
        "lat" : 26.322482999999998
      }
    },
    {
      "type" : "Feature",
      "id" : 181,
      "geometry" : {
        "type" : "Point",
        "coordinates" : [
          119.76857327821521,
          26.354628892249249
        ]
      },
      "properties" : {
        "FID" : 181,
        "name" : "坛主祠",
        "lng" : 119.77312499999999,
        "lat" : 26.351326
      }
    },
    {
      "type" : "Feature",
      "id" : 182,
      "geometry" : {
        "type" : "Point",
        "coordinates" : [
          119.70544676895638,
          26.301289621003313
        ]
      },
      "properties" : {
        "FID" : 182,
        "name" : "连江莲花山永兴寺",
        "lng" : 119.710019,
        "lat" : 26.297992000000001
      }
    },
    {
      "type" : "Feature",
      "id" : 183,
      "geometry" : {
        "type" : "Point",
        "coordinates" : [
          119.72804533865266,
          26.281595314665132
        ]
      },
      "properties" : {
        "FID" : 183,
        "name" : "定海湾小木屋",
        "lng" : 119.732626,
        "lat" : 26.278331000000001
      }
    },
    {
      "type" : "Feature",
      "id" : 184,
      "geometry" : {
        "type" : "Point",
        "coordinates" : [
          119.79229341753044,
          26.28247408903885
        ]
      },
      "properties" : {
        "FID" : 184,
        "name" : "定海古城观景台",
        "lng" : 119.79679,
        "lat" : 26.279177000000001
      }
    },
    {
      "type" : "Feature",
      "id" : 185,
      "geometry" : {
        "type" : "Point",
        "coordinates" : [
          119.73593070494037,
          26.320140335389993
        ]
      },
      "properties" : {
        "FID" : 185,
        "name" : "王氏宗祠",
        "lng" : 119.74051300000001,
        "lat" : 26.316860999999999
      }
    },
    {
      "type" : "Feature",
      "id" : 186,
      "geometry" : {
        "type" : "Point",
        "coordinates" : [
          119.72022685209377,
          26.278513931064833
        ]
      },
      "properties" : {
        "FID" : 186,
        "name" : "九仙宫",
        "lng" : 119.724806,
        "lat" : 26.275245000000002
      }
    },
    {
      "type" : "Feature",
      "id" : 187,
      "geometry" : {
        "type" : "Point",
        "coordinates" : [
          119.76093505483858,
          26.361092286764247
        ]
      },
      "properties" : {
        "FID" : 187,
        "name" : "湖山禅寺",
        "lng" : 119.76549900000001,
        "lat" : 26.357792
      }
    },
    {
      "type" : "Feature",
      "id" : 188,
      "geometry" : {
        "type" : "Point",
        "coordinates" : [
          119.62534405403105,
          26.194805836537395
        ]
      },
      "properties" : {
        "FID" : 188,
        "name" : "赶海一号",
        "lng" : 119.62980899999999,
        "lat" : 26.19143
      }
    },
    {
      "type" : "Feature",
      "id" : 189,
      "geometry" : {
        "type" : "Point",
        "coordinates" : [
          119.94463330922171,
          26.368879821693401
        ]
      },
      "properties" : {
        "FID" : 189,
        "name" : "基督教北茭堂",
        "lng" : 119.948903,
        "lat" : 26.365445999999999
      }
    },
    {
      "type" : "Feature",
      "id" : 190,
      "geometry" : {
        "type" : "Point",
        "coordinates" : [
          119.78356360624818,
          26.30105314907334
        ]
      },
      "properties" : {
        "FID" : 190,
        "name" : "文武太平王祖庙",
        "lng" : 119.788082,
        "lat" : 26.297758999999999
      }
    },
    {
      "type" : "Feature",
      "id" : 191,
      "geometry" : {
        "type" : "Point",
        "coordinates" : [
          119.65843654960256,
          26.241990291103249
        ]
      },
      "properties" : {
        "FID" : 191,
        "name" : "百胜广场",
        "lng" : 119.662944,
        "lat" : 26.238641000000001
      }
    },
    {
      "type" : "Feature",
      "id" : 192,
      "geometry" : {
        "type" : "Point",
        "coordinates" : [
          119.78932805652032,
          26.284841908067353
        ]
      },
      "properties" : {
        "FID" : 192,
        "name" : "基督教定海堂",
        "lng" : 119.79383199999999,
        "lat" : 26.281548000000001
      }
    },
    {
      "type" : "Feature",
      "id" : 193,
      "geometry" : {
        "type" : "Point",
        "coordinates" : [
          119.60007079049785,
          26.217036823436356
        ]
      },
      "properties" : {
        "FID" : 193,
        "name" : "云居寺",
        "lng" : 119.60453,
        "lat" : 26.213628
      }
    },
    {
      "type" : "Feature",
      "id" : 194,
      "geometry" : {
        "type" : "Point",
        "coordinates" : [
          119.6531844276314,
          26.209185343033944
        ]
      },
      "properties" : {
        "FID" : 194,
        "name" : "晓澳海滩",
        "lng" : 119.65768199999999,
        "lat" : 26.205845
      }
    },
    {
      "type" : "Feature",
      "id" : 195,
      "geometry" : {
        "type" : "Point",
        "coordinates" : [
          119.77378146385485,
          26.437506156211676
        ]
      },
      "properties" : {
        "FID" : 195,
        "name" : "油杭观音禅院",
        "lng" : 119.77833,
        "lat" : 26.434166999999999
      }
    },
    {
      "type" : "Feature",
      "id" : 196,
      "geometry" : {
        "type" : "Point",
        "coordinates" : [
          119.68765711488597,
          26.309954992306107
        ]
      },
      "properties" : {
        "FID" : 196,
        "name" : "光严寺",
        "lng" : 119.692211,
        "lat" : 26.306625
      }
    },
    {
      "type" : "Feature",
      "id" : 197,
      "geometry" : {
        "type" : "Point",
        "coordinates" : [
          119.53441987418405,
          26.202622669963393
        ]
      },
      "properties" : {
        "FID" : 197,
        "name" : "陈第公园",
        "lng" : 119.538994,
        "lat" : 26.199296
      }
    },
    {
      "type" : "Feature",
      "id" : 198,
      "geometry" : {
        "type" : "Point",
        "coordinates" : [
          119.60170681443594,
          26.262526649686443
        ]
      },
      "properties" : {
        "FID" : 198,
        "name" : "浦口镇保福寺",
        "lng" : 119.60616899999999,
        "lat" : 26.259093
      }
    },
    {
      "type" : "Feature",
      "id" : 199,
      "geometry" : {
        "type" : "Point",
        "coordinates" : [
          119.62214595897188,
          26.350832135903918
        ]
      },
      "properties" : {
        "FID" : 199,
        "name" : "连江透堡三仙观",
        "lng" : 119.62662,
        "lat" : 26.347370999999999
      }
    },
    {
      "type" : "Feature",
      "id" : 200,
      "geometry" : {
        "type" : "Point",
        "coordinates" : [
          119.53998769027359,
          26.204304532985663
        ]
      },
      "properties" : {
        "FID" : 200,
        "name" : "百凤公园",
        "lng" : 119.544545,
        "lat" : 26.200963999999999
      }
    },
    {
      "type" : "Feature",
      "id" : 201,
      "geometry" : {
        "type" : "Point",
        "coordinates" : [
          119.75875155586394,
          26.301209577367391
        ]
      },
      "properties" : {
        "FID" : 201,
        "name" : "元帅府",
        "lng" : 119.76331399999999,
        "lat" : 26.297937999999998
      }
    },
    {
      "type" : "Feature",
      "id" : 202,
      "geometry" : {
        "type" : "Point",
        "coordinates" : [
          119.62900327886931,
          26.369261468516967
        ]
      },
      "properties" : {
        "FID" : 202,
        "name" : "廣修寺",
        "lng" : 119.633484,
        "lat" : 26.365801000000001
      }
    },
    {
      "type" : "Feature",
      "id" : 203,
      "geometry" : {
        "type" : "Point",
        "coordinates" : [
          119.62527255104231,
          26.380455839519527
        ]
      },
      "properties" : {
        "FID" : 203,
        "name" : "报国寺",
        "lng" : 119.629751,
        "lat" : 26.376985999999999
      }
    },
    {
      "type" : "Feature",
      "id" : 204,
      "geometry" : {
        "type" : "Point",
        "coordinates" : [
          119.62000317008568,
          26.21551515834005
        ]
      },
      "properties" : {
        "FID" : 204,
        "name" : "旗福禅寺",
        "lng" : 119.624466,
        "lat" : 26.212121
      }
    },
    {
      "type" : "Feature",
      "id" : 205,
      "geometry" : {
        "type" : "Point",
        "coordinates" : [
          119.60769205102645,
          26.371699692341707
        ]
      },
      "properties" : {
        "FID" : 205,
        "name" : "罗汉禅寺",
        "lng" : 119.612162,
        "lat" : 26.368217000000001
      }
    },
    {
      "type" : "Feature",
      "id" : 206,
      "geometry" : {
        "type" : "Point",
        "coordinates" : [
          119.61697106370694,
          26.238988579381331
        ]
      },
      "properties" : {
        "FID" : 206,
        "name" : "东岱南门公园",
        "lng" : 119.62143399999999,
        "lat" : 26.235578
      }
    },
    {
      "type" : "Feature",
      "id" : 207,
      "geometry" : {
        "type" : "Point",
        "coordinates" : [
          119.7786485433177,
          26.33599570670621
        ]
      },
      "properties" : {
        "FID" : 207,
        "name" : "连江县南山禅寺",
        "lng" : 119.78318,
        "lat" : 26.332691000000001
      }
    },
    {
      "type" : "Feature",
      "id" : 208,
      "geometry" : {
        "type" : "Point",
        "coordinates" : [
          119.60966223829139,
          26.228288560279999
        ]
      },
      "properties" : {
        "FID" : 208,
        "name" : "连江龙山寺",
        "lng" : 119.61412199999999,
        "lat" : 26.224878
      }
    },
    {
      "type" : "Feature",
      "id" : 209,
      "geometry" : {
        "type" : "Point",
        "coordinates" : [
          119.576252502656,
          26.328949005196588
        ]
      },
      "properties" : {
        "FID" : 209,
        "name" : "广应寺",
        "lng" : 119.58073899999999,
        "lat" : 26.325486999999999
      }
    },
    {
      "type" : "Feature",
      "id" : 210,
      "geometry" : {
        "type" : "Point",
        "coordinates" : [
          119.73055262473432,
          26.319701645530394
        ]
      },
      "properties" : {
        "FID" : 210,
        "name" : "红下基督教堂",
        "lng" : 119.735136,
        "lat" : 26.316420000000001
      }
    },
    {
      "type" : "Feature",
      "id" : 211,
      "geometry" : {
        "type" : "Point",
        "coordinates" : [
          119.75227763495113,
          26.36103971841856
        ]
      },
      "properties" : {
        "FID" : 211,
        "name" : "岐峰公园",
        "lng" : 119.75685199999999,
        "lat" : 26.357742999999999
      }
    },
    {
      "type" : "Feature",
      "id" : 212,
      "geometry" : {
        "type" : "Point",
        "coordinates" : [
          119.62419790448104,
          26.249849782480986
        ]
      },
      "properties" : {
        "FID" : 212,
        "name" : "目莲寺",
        "lng" : 119.628666,
        "lat" : 26.246441000000001
      }
    },
    {
      "type" : "Feature",
      "id" : 213,
      "geometry" : {
        "type" : "Point",
        "coordinates" : [
          119.64386775933576,
          26.374184704204559
        ]
      },
      "properties" : {
        "FID" : 213,
        "name" : "城隍庙",
        "lng" : 119.648365,
        "lat" : 26.370744999999999
      }
    },
    {
      "type" : "Feature",
      "id" : 214,
      "geometry" : {
        "type" : "Point",
        "coordinates" : [
          119.59842099321811,
          26.345224241896535
        ]
      },
      "properties" : {
        "FID" : 214,
        "name" : "炉峰山观景台",
        "lng" : 119.60289,
        "lat" : 26.341749
      }
    },
    {
      "type" : "Feature",
      "id" : 215,
      "geometry" : {
        "type" : "Point",
        "coordinates" : [
          119.52496818195665,
          26.199625010460522
        ]
      },
      "properties" : {
        "FID" : 215,
        "name" : "莲湖公园",
        "lng" : 119.529573,
        "lat" : 26.196324000000001
      }
    },
    {
      "type" : "Feature",
      "id" : 216,
      "geometry" : {
        "type" : "Point",
        "coordinates" : [
          119.69265998080819,
          26.283301110308074
        ]
      },
      "properties" : {
        "FID" : 216,
        "name" : "张氏宗祠",
        "lng" : 119.69721800000001,
        "lat" : 26.279993000000001
      }
    },
    {
      "type" : "Feature",
      "id" : 217,
      "geometry" : {
        "type" : "Point",
        "coordinates" : [
          119.76573439675165,
          26.344411176065652
        ]
      },
      "properties" : {
        "FID" : 217,
        "name" : "连江圆通寺",
        "lng" : 119.77029,
        "lat" : 26.341114999999999
      }
    },
    {
      "type" : "Feature",
      "id" : 218,
      "geometry" : {
        "type" : "Point",
        "coordinates" : [
          119.51520635317986,
          26.194622195259512
        ]
      },
      "properties" : {
        "FID" : 218,
        "name" : "宝华后岩寺",
        "lng" : 119.519845,
        "lat" : 26.191351000000001
      }
    },
    {
      "type" : "Feature",
      "id" : 219,
      "geometry" : {
        "type" : "Point",
        "coordinates" : [
          119.73523952853051,
          26.360138583445639
        ]
      },
      "properties" : {
        "FID" : 219,
        "name" : "白马尊王宫",
        "lng" : 119.739825,
        "lat" : 26.356840999999999
      }
    },
    {
      "type" : "Feature",
      "id" : 220,
      "geometry" : {
        "type" : "Point",
        "coordinates" : [
          119.66252263675943,
          26.37742701682614
        ]
      },
      "properties" : {
        "FID" : 220,
        "name" : "马鼻双泉陈氏宗祠",
        "lng" : 119.667046,
        "lat" : 26.374020000000002
      }
    },
    {
      "type" : "Feature",
      "id" : 221,
      "geometry" : {
        "type" : "Point",
        "coordinates" : [
          119.54025599655056,
          26.197249950889191
        ]
      },
      "properties" : {
        "FID" : 221,
        "name" : "平水庙",
        "lng" : 119.54481199999999,
        "lat" : 26.193912999999998
      }
    },
    {
      "type" : "Feature",
      "id" : 222,
      "geometry" : {
        "type" : "Point",
        "coordinates" : [
          119.73523952853051,
          26.360138583445639
        ]
      },
      "properties" : {
        "FID" : 222,
        "name" : "白马尊王宫",
        "lng" : 119.739825,
        "lat" : 26.356840999999999
      }
    },
    {
      "type" : "Feature",
      "id" : 223,
      "geometry" : {
        "type" : "Point",
        "coordinates" : [
          119.66252263675943,
          26.37742701682614
        ]
      },
      "properties" : {
        "FID" : 223,
        "name" : "马鼻双泉陈氏宗祠",
        "lng" : 119.667046,
        "lat" : 26.374020000000002
      }
    },
    {
      "type" : "Feature",
      "id" : 224,
      "geometry" : {
        "type" : "Point",
        "coordinates" : [
          119.60192427988552,
          26.242873850722049
        ]
      },
      "properties" : {
        "FID" : 224,
        "name" : "中兴公园",
        "lng" : 119.606385,
        "lat" : 26.239450999999999
      }
    },
    {
      "type" : "Feature",
      "id" : 225,
      "geometry" : {
        "type" : "Point",
        "coordinates" : [
          119.65400411086054,
          26.374958017105293
        ]
      },
      "properties" : {
        "FID" : 225,
        "name" : "英显宫",
        "lng" : 119.65851499999999,
        "lat" : 26.371535999999999
      }
    },
    {
      "type" : "Feature",
      "id" : 226,
      "geometry" : {
        "type" : "Point",
        "coordinates" : [
          119.60897073536538,
          26.373848764728425
        ]
      },
      "properties" : {
        "FID" : 226,
        "name" : "连江仙踪寺",
        "lng" : 119.61344099999999,
        "lat" : 26.370366000000001
      }
    },
    {
      "type" : "Feature",
      "id" : 227,
      "geometry" : {
        "type" : "Point",
        "coordinates" : [
          119.68455189818965,
          26.340286685970053
        ]
      },
      "properties" : {
        "FID" : 227,
        "name" : "蓝氏宗祠",
        "lng" : 119.689104,
        "lat" : 26.336936999999999
      }
    },
    {
      "type" : "Feature",
      "id" : 228,
      "geometry" : {
        "type" : "Point",
        "coordinates" : [
          119.72029782651254,
          26.278556887562821
        ]
      },
      "properties" : {
        "FID" : 228,
        "name" : "蛤沙文体公园",
        "lng" : 119.72487700000001,
        "lat" : 26.275288
      }
    },
    {
      "type" : "Feature",
      "id" : 229,
      "geometry" : {
        "type" : "Point",
        "coordinates" : [
          119.66595139177078,
          26.380199585022119
        ]
      },
      "properties" : {
        "FID" : 229,
        "name" : "马头石公园",
        "lng" : 119.67048,
        "lat" : 26.376798000000001
      }
    },
    {
      "type" : "Feature",
      "id" : 230,
      "geometry" : {
        "type" : "Point",
        "coordinates" : [
          119.55062258482582,
          26.209245112709361
        ]
      },
      "properties" : {
        "FID" : 230,
        "name" : "荷山寺",
        "lng" : 119.555151,
        "lat" : 26.205880000000001
      }
    },
    {
      "type" : "Feature",
      "id" : 231,
      "geometry" : {
        "type" : "Point",
        "coordinates" : [
          119.62117906324535,
          26.275817156461933
        ]
      },
      "properties" : {
        "FID" : 231,
        "name" : "龙泉禅寺",
        "lng" : 119.625647,
        "lat" : 26.272390999999999
      }
    },
    {
      "type" : "Feature",
      "id" : 232,
      "geometry" : {
        "type" : "Point",
        "coordinates" : [
          119.63908206561769,
          26.339872865435758
        ]
      },
      "properties" : {
        "FID" : 232,
        "name" : "报慈寺",
        "lng" : 119.64357099999999,
        "lat" : 26.33644
      }
    },
    {
      "type" : "Feature",
      "id" : 233,
      "geometry" : {
        "type" : "Point",
        "coordinates" : [
          119.58248837241877,
          26.257334827180642
        ]
      },
      "properties" : {
        "FID" : 233,
        "name" : "连江浦口浦元寺",
        "lng" : 119.586962,
        "lat" : 26.253905
      }
    },
    {
      "type" : "Feature",
      "id" : 234,
      "geometry" : {
        "type" : "Point",
        "coordinates" : [
          119.53600875949935,
          26.203342866048747
        ]
      },
      "properties" : {
        "FID" : 234,
        "name" : "林氏宗祠",
        "lng" : 119.540578,
        "lat" : 26.200012000000001
      }
    },
    {
      "type" : "Feature",
      "id" : 235,
      "geometry" : {
        "type" : "Point",
        "coordinates" : [
          119.45349494497684,
          26.262165143506174
        ]
      },
      "properties" : {
        "FID" : 235,
        "name" : "广福寺",
        "lng" : 119.45835700000001,
        "lat" : 26.259029999999999
      }
    },
    {
      "type" : "Feature",
      "id" : 236,
      "geometry" : {
        "type" : "Point",
        "coordinates" : [
          119.55470371114353,
          26.20795956354435
        ]
      },
      "properties" : {
        "FID" : 236,
        "name" : "含光生态公园",
        "lng" : 119.55922200000001,
        "lat" : 26.204588000000001
      }
    },
    {
      "type" : "Feature",
      "id" : 237,
      "geometry" : {
        "type" : "Point",
        "coordinates" : [
          119.53536398381277,
          26.227625423578171
        ]
      },
      "properties" : {
        "FID" : 237,
        "name" : "九龙山公园",
        "lng" : 119.53993699999999,
        "lat" : 26.224281999999999
      }
    },
    {
      "type" : "Feature",
      "id" : 238,
      "geometry" : {
        "type" : "Point",
        "coordinates" : [
          119.59203097439372,
          26.236100661565775
        ]
      },
      "properties" : {
        "FID" : 238,
        "name" : "文体公园",
        "lng" : 119.596495,
        "lat" : 26.232679999999998
      }
    },
    {
      "type" : "Feature",
      "id" : 239,
      "geometry" : {
        "type" : "Point",
        "coordinates" : [
          119.70675319405197,
          26.28126572677736
        ]
      },
      "properties" : {
        "FID" : 239,
        "name" : "大王庙",
        "lng" : 119.711325,
        "lat" : 26.277979999999999
      }
    },
    {
      "type" : "Feature",
      "id" : 240,
      "geometry" : {
        "type" : "Point",
        "coordinates" : [
          119.52301027798362,
          26.202438449252849
        ]
      },
      "properties" : {
        "FID" : 240,
        "name" : "玉泉公园",
        "lng" : 119.52762199999999,
        "lat" : 26.199141000000001
      }
    },
    {
      "type" : "Feature",
      "id" : 241,
      "geometry" : {
        "type" : "Point",
        "coordinates" : [
          119.58872091367768,
          26.24658307305517
        ]
      },
      "properties" : {
        "FID" : 241,
        "name" : "慈福禅寺",
        "lng" : 119.593188,
        "lat" : 26.243157
      }
    },
    {
      "type" : "Feature",
      "id" : 242,
      "geometry" : {
        "type" : "Point",
        "coordinates" : [
          119.47058568216538,
          26.434165100516431
        ]
      },
      "properties" : {
        "FID" : 242,
        "name" : "隐峰禅寺",
        "lng" : 119.47540600000001,
        "lat" : 26.430910999999998
      }
    },
    {
      "type" : "Feature",
      "id" : 243,
      "geometry" : {
        "type" : "Point",
        "coordinates" : [
          119.96854978752161,
          26.218141724831614
        ]
      },
      "properties" : {
        "FID" : 243,
        "name" : "玉皇府",
        "lng" : 119.972852,
        "lat" : 26.214841
      }
    },
    {
      "type" : "Feature",
      "id" : 244,
      "geometry" : {
        "type" : "Point",
        "coordinates" : [
          119.67500814787817,
          26.326333953016221
        ]
      },
      "properties" : {
        "FID" : 244,
        "name" : "隐安寺",
        "lng" : 119.679546,
        "lat" : 26.322973000000001
      }
    },
    {
      "type" : "Feature",
      "id" : 245,
      "geometry" : {
        "type" : "Point",
        "coordinates" : [
          119.65702019192109,
          26.329118459911239
        ]
      },
      "properties" : {
        "FID" : 245,
        "name" : "隐峰寺",
        "lng" : 119.66153199999999,
        "lat" : 26.325721999999999
      }
    },
    {
      "type" : "Feature",
      "id" : 246,
      "geometry" : {
        "type" : "Point",
        "coordinates" : [
          119.63135341093175,
          26.378804126882692
        ]
      },
      "properties" : {
        "FID" : 246,
        "name" : "文体公园",
        "lng" : 119.635837,
        "lat" : 26.375343000000001
      }
    },
    {
      "type" : "Feature",
      "id" : 247,
      "geometry" : {
        "type" : "Point",
        "coordinates" : [
          119.62173350188738,
          26.442620369123929
        ]
      },
      "properties" : {
        "FID" : 247,
        "name" : "巽屿村红色主题公园",
        "lng" : 119.626214,
        "lat" : 26.439124
      }
    },
    {
      "type" : "Feature",
      "id" : 248,
      "geometry" : {
        "type" : "Point",
        "coordinates" : [
          119.75390367645062,
          26.451050159658781
        ]
      },
      "properties" : {
        "FID" : 248,
        "name" : "三学寺",
        "lng" : 119.758483,
        "lat" : 26.44772
      }
    },
    {
      "type" : "Feature",
      "id" : 249,
      "geometry" : {
        "type" : "Point",
        "coordinates" : [
          119.65676298130589,
          26.377753027971092
        ]
      },
      "properties" : {
        "FID" : 249,
        "name" : "连江慈音寺",
        "lng" : 119.661278,
        "lat" : 26.374334999999999
      }
    },
    {
      "type" : "Feature",
      "id" : 250,
      "geometry" : {
        "type" : "Point",
        "coordinates" : [
          119.99298369771057,
          26.23030012993226
        ]
      },
      "properties" : {
        "FID" : 250,
        "name" : "中山露营区",
        "lng" : 119.997345,
        "lat" : 26.227063999999999
      }
    },
    {
      "type" : "Feature",
      "id" : 251,
      "geometry" : {
        "type" : "Point",
        "coordinates" : [
          119.69878839070037,
          26.281624404995753
        ]
      },
      "properties" : {
        "FID" : 251,
        "name" : "廻龙陈氏支祠",
        "lng" : 119.70335300000001,
        "lat" : 26.278327000000001
      }
    },
    {
      "type" : "Feature",
      "id" : 252,
      "geometry" : {
        "type" : "Point",
        "coordinates" : [
          119.75966613558451,
          26.444724593350177
        ]
      },
      "properties" : {
        "FID" : 252,
        "name" : "临水宫",
        "lng" : 119.76423800000001,
        "lat" : 26.441393999999999
      }
    },
    {
      "type" : "Feature",
      "id" : 253,
      "geometry" : {
        "type" : "Point",
        "coordinates" : [
          119.99304955325461,
          26.230017770051301
        ]
      },
      "properties" : {
        "FID" : 253,
        "name" : "一柱擎天碑",
        "lng" : 119.997411,
        "lat" : 26.226782
      }
    },
    {
      "type" : "Feature",
      "id" : 254,
      "geometry" : {
        "type" : "Point",
        "coordinates" : [
          119.64887014294689,
          26.225576608716789
        ]
      },
      "properties" : {
        "FID" : 254,
        "name" : "龟山公园",
        "lng" : 119.653363,
        "lat" : 26.222218999999999
      }
    },
    {
      "type" : "Feature",
      "id" : 255,
      "geometry" : {
        "type" : "Point",
        "coordinates" : [
          119.64094436618102,
          26.278528068742702
        ]
      },
      "properties" : {
        "FID" : 255,
        "name" : "大雄宝殿",
        "lng" : 119.645431,
        "lat" : 26.275127999999999
      }
    },
    {
      "type" : "Feature",
      "id" : 256,
      "geometry" : {
        "type" : "Point",
        "coordinates" : [
          119.65966977405419,
          26.377845599956231
        ]
      },
      "properties" : {
        "FID" : 256,
        "name" : "马鼻基督教堂",
        "lng" : 119.66418899999999,
        "lat" : 26.374433
      }
    },
    {
      "type" : "Feature",
      "id" : 257,
      "geometry" : {
        "type" : "Point",
        "coordinates" : [
          119.94986805355516,
          26.375151303470489
        ]
      },
      "properties" : {
        "FID" : 257,
        "name" : "武圣庙",
        "lng" : 119.95414599999999,
        "lat" : 26.371725999999999
      }
    },
    {
      "type" : "Feature",
      "id" : 258,
      "geometry" : {
        "type" : "Point",
        "coordinates" : [
          119.53596400114237,
          26.211802723080623
        ]
      },
      "properties" : {
        "FID" : 258,
        "name" : "三尊王宫",
        "lng" : 119.54053399999999,
        "lat" : 26.208466999999999
      }
    },
    {
      "type" : "Feature",
      "id" : 259,
      "geometry" : {
        "type" : "Point",
        "coordinates" : [
          119.76812855467945,
          26.35431138648406
        ]
      },
      "properties" : {
        "FID" : 259,
        "name" : "金峰寺",
        "lng" : 119.77268100000001,
        "lat" : 26.351009000000001
      }
    },
    {
      "type" : "Feature",
      "id" : 260,
      "geometry" : {
        "type" : "Point",
        "coordinates" : [
          119.99581775296849,
          26.228113275041796
        ]
      },
      "properties" : {
        "FID" : 260,
        "name" : "马祖北竿机场旅游服务中心",
        "lng" : 120.000186,
        "lat" : 26.224886999999999
      }
    },
    {
      "type" : "Feature",
      "id" : 261,
      "geometry" : {
        "type" : "Point",
        "coordinates" : [
          119.98771237406561,
          26.222922892705128
        ]
      },
      "properties" : {
        "FID" : 261,
        "name" : "中兴公园",
        "lng" : 119.99206,
        "lat" : 26.219674999999999
      }
    },
    {
      "type" : "Feature",
      "id" : 262,
      "geometry" : {
        "type" : "Point",
        "coordinates" : [
          119.99189244444298,
          26.230082320228657
        ]
      },
      "properties" : {
        "FID" : 262,
        "name" : "胜利门(北竿乡)",
        "lng" : 119.996251,
        "lat" : 26.226842999999999
      }
    },
    {
      "type" : "Feature",
      "id" : 263,
      "geometry" : {
        "type" : "Point",
        "coordinates" : [
          119.59903053021141,
          26.216833988724755
        ]
      },
      "properties" : {
        "FID" : 263,
        "name" : "云居寺·水中观音",
        "lng" : 119.60348999999999,
        "lat" : 26.213425000000001
      }
    },
    {
      "type" : "Feature",
      "id" : 264,
      "geometry" : {
        "type" : "Point",
        "coordinates" : [
          119.57569905442172,
          26.351916908498147
        ]
      },
      "properties" : {
        "FID" : 264,
        "name" : "光化寺",
        "lng" : 119.58018800000001,
        "lat" : 26.348445000000002
      }
    },
    {
      "type" : "Feature",
      "id" : 265,
      "geometry" : {
        "type" : "Point",
        "coordinates" : [
          119.54413665419253,
          26.203751141320303
        ]
      },
      "properties" : {
        "FID" : 265,
        "name" : "基督教真理堂",
        "lng" : 119.548682,
        "lat" : 26.200402
      }
    },
    {
      "type" : "Feature",
      "id" : 266,
      "geometry" : {
        "type" : "Point",
        "coordinates" : [
          119.62360883632778,
          26.242899650621325
        ]
      },
      "properties" : {
        "FID" : 266,
        "name" : "后山阁",
        "lng" : 119.62807599999999,
        "lat" : 26.239494000000001
      }
    },
    {
      "type" : "Feature",
      "id" : 267,
      "geometry" : {
        "type" : "Point",
        "coordinates" : [
          119.66439591399403,
          26.241145510491663
        ]
      },
      "properties" : {
        "FID" : 267,
        "name" : "百胜海堤休闲步道",
        "lng" : 119.66891200000001,
        "lat" : 26.237808000000001
      }
    },
    {
      "type" : "Feature",
      "id" : 268,
      "geometry" : {
        "type" : "Point",
        "coordinates" : [
          119.62092913310308,
          26.345438115681237
        ]
      },
      "properties" : {
        "FID" : 268,
        "name" : "连江透堡文昌祠",
        "lng" : 119.62540199999999,
        "lat" : 26.341978000000001
      }
    },
    {
      "type" : "Feature",
      "id" : 269,
      "geometry" : {
        "type" : "Point",
        "coordinates" : [
          119.60309108108208,
          26.247701056330364
        ]
      },
      "properties" : {
        "FID" : 269,
        "name" : "浦东公园",
        "lng" : 119.607552,
        "lat" : 26.244275999999999
      }
    },
    {
      "type" : "Feature",
      "id" : 270,
      "geometry" : {
        "type" : "Point",
        "coordinates" : [
          119.55104241901589,
          26.19869766578617
        ]
      },
      "properties" : {
        "FID" : 270,
        "name" : "文新村(下斗门)文体公园",
        "lng" : 119.55556900000001,
        "lat" : 26.195338
      }
    },
    {
      "type" : "Feature",
      "id" : 271,
      "geometry" : {
        "type" : "Point",
        "coordinates" : [
          119.545226732708,
          26.203050976978869
        ]
      },
      "properties" : {
        "FID" : 271,
        "name" : "永宁禅寺",
        "lng" : 119.549769,
        "lat" : 26.1997
      }
    },
    {
      "type" : "Feature",
      "id" : 272,
      "geometry" : {
        "type" : "Point",
        "coordinates" : [
          119.63096805253554,
          26.224623844097213
        ]
      },
      "properties" : {
        "FID" : 272,
        "name" : "湖里旗山公园",
        "lng" : 119.63544,
        "lat" : 26.221238
      }
    },
    {
      "type" : "Feature",
      "id" : 273,
      "geometry" : {
        "type" : "Point",
        "coordinates" : [
          119.60333968309307,
          26.267243517916491
        ]
      },
      "properties" : {
        "FID" : 273,
        "name" : "聚峰禅寺",
        "lng" : 119.60780200000001,
        "lat" : 26.263808000000001
      }
    },
    {
      "type" : "Feature",
      "id" : 274,
      "geometry" : {
        "type" : "Point",
        "coordinates" : [
          119.6208169009781,
          26.349558055691947
        ]
      },
      "properties" : {
        "FID" : 274,
        "name" : "二三革命纪念园",
        "lng" : 119.62529000000001,
        "lat" : 26.346095999999999
      }
    },
    {
      "type" : "Feature",
      "id" : 275,
      "geometry" : {
        "type" : "Point",
        "coordinates" : [
          119.59474631796125,
          26.251947422230572
        ]
      },
      "properties" : {
        "FID" : 275,
        "name" : "锦山寺",
        "lng" : 119.59921,
        "lat" : 26.248518000000001
      }
    },
    {
      "type" : "Feature",
      "id" : 276,
      "geometry" : {
        "type" : "Point",
        "coordinates" : [
          119.64537000276779,
          26.235674452615633
        ]
      },
      "properties" : {
        "FID" : 276,
        "name" : "功德亭",
        "lng" : 119.64985900000001,
        "lat" : 26.232305
      }
    },
    {
      "type" : "Feature",
      "id" : 277,
      "geometry" : {
        "type" : "Point",
        "coordinates" : [
          119.99993068800043,
          26.224864930271881
        ]
      },
      "properties" : {
        "FID" : 277,
        "name" : "塘歧尚书庙",
        "lng" : 120.00430900000001,
        "lat" : 26.221653
      }
    },
    {
      "type" : "Feature",
      "id" : 278,
      "geometry" : {
        "type" : "Point",
        "coordinates" : [
          119.98078640618392,
          26.221566787092428
        ]
      },
      "properties" : {
        "FID" : 278,
        "name" : "戦争和平记念公园",
        "lng" : 119.985117,
        "lat" : 26.218298999999998
      }
    },
    {
      "type" : "Feature",
      "id" : 279,
      "geometry" : {
        "type" : "Point",
        "coordinates" : [
          119.97027249498322,
          26.19749088529111
        ]
      },
      "properties" : {
        "FID" : 279,
        "name" : "蛤蜊岛",
        "lng" : 119.974577,
        "lat" : 26.194206999999999
      }
    },
    {
      "type" : "Feature",
      "id" : 280,
      "geometry" : {
        "type" : "Point",
        "coordinates" : [
          119.98204318194321,
          26.22421758990712
        ]
      },
      "properties" : {
        "FID" : 280,
        "name" : "碧山公园(北竿乡)",
        "lng" : 119.986377,
        "lat" : 26.220952
      }
    },
    {
      "type" : "Feature",
      "id" : 281,
      "geometry" : {
        "type" : "Point",
        "coordinates" : [
          119.98039997468433,
          26.226552775083956
        ]
      },
      "properties" : {
        "FID" : 281,
        "name" : "安宁步道",
        "lng" : 119.98473,
        "lat" : 26.223281
      }
    },
    {
      "type" : "Feature",
      "id" : 282,
      "geometry" : {
        "type" : "Point",
        "coordinates" : [
          120.00039469198356,
          26.236389040617969
        ]
      },
      "properties" : {
        "FID" : 282,
        "name" : "风山",
        "lng" : 120.004775,
        "lat" : 26.233172
      }
    },
    {
      "type" : "Feature",
      "id" : 283,
      "geometry" : {
        "type" : "Point",
        "coordinates" : [
          119.99175403698237,
          26.226679808951864
        ]
      },
      "properties" : {
        "FID" : 283,
        "name" : "万寿尚书公",
        "lng" : 119.996112,
        "lat" : 26.223441999999999
      }
    },
    {
      "type" : "Feature",
      "id" : 284,
      "geometry" : {
        "type" : "Point",
        "coordinates" : [
          119.77559067409796,
          26.41394299834662
        ]
      },
      "properties" : {
        "FID" : 284,
        "name" : "聚福寺",
        "lng" : 119.780134,
        "lat" : 26.410609999999998
      }
    },
    {
      "type" : "Feature",
      "id" : 285,
      "geometry" : {
        "type" : "Point",
        "coordinates" : [
          119.98334098958101,
          26.280091184104862
        ]
      },
      "properties" : {
        "FID" : 285,
        "name" : "高登之光纪念碑",
        "lng" : 119.98768200000001,
        "lat" : 26.276799
      }
    },
    {
      "type" : "Feature",
      "id" : 286,
      "geometry" : {
        "type" : "Point",
        "coordinates" : [
          119.98815222651253,
          26.223710016550275
        ]
      },